{
  "trips": [
    {
      "id": "001",
      "title": "北京之旅",
      "date": "2024-05-01",
      "from": { "name": "深圳", "lng": 114.06, "lat": 22.54 },
      "to": { "name": "北京", "lng": 116.40, "lat": 39.90 },
      "transport": "飞机",
      "distance": 2000,
      "note": "五一假期，游览故宫、长城，感受千年历史"
    },
    {
      "id": "002",
      "title": "上海探索",
      "date": "2024-07-15",
      "from": { "name": "深圳", "lng": 114.06, "lat": 22.54 },
      "to": { "name": "上海", "lng": 121.47, "lat": 31.23 },
      "transport": "高铁",
      "distance": 1400,
      "note": "外滩夜景太美了，陆家嘴金融区打卡"
    },
    {
      "id": "003",
      "title": "成都美食之旅",
      "date": "2024-09-20",
      "from": { "name": "深圳", "lng": 114.06, "lat": 22.54 },
      "to": { "name": "成都", "lng": 104.07, "lat": 30.67 },
      "transport": "飞机",
      "distance": 1700,
      "note": "火锅、串串、熊猫基地，不虚此行！"
    },
    {
      "id": "004",
      "title": "西安历史文化游",
      "date": "2024-10-03",
      "from": { "name": "深圳", "lng": 114.06, "lat": 22.54 },
      "to": { "name": "西安", "lng": 108.93, "lat": 34.27 },
      "transport": "飞机",
      "distance": 1800,
      "note": "兵马俑震撼人心，回民街美食一条龙"
    },
    {
      "id": "005",
      "title": "杭州西湖漫步",
      "date": "2024-11-10",
      "from": { "name": "深圳", "lng": 114.06, "lat": 22.54 },
      "to": { "name": "杭州", "lng": 120.15, "lat": 30.28 },
      "transport": "高铁",
      "distance": 1300,
      "note": "西湖断桥残雪，龙井茶园，人间天堂名不虚传"
    }
  ]
}
